{"version": 0.6, "generator": "Overpass API 0.7.62.1 084b4234", "osm3s": {"timestamp_osm_base": "2024-06-07T14:03:51Z", "copyright": "The data included in this document is from www.openstreetmap.org. The data is made available under ODbL."}, "elements": [{"type": "node", "id": 1922704313, "lat": 54.6857089, "lon": 8.5615483}, {"type": "node", "id": 1922704336, "lat": 54.6856418, "lon": 8.5614849}, {"type": "node", "id": 1922704377, "lat": 54.6856375, "lon": 8.5613114}, {"type": "node", "id": 1922704404, "lat": 54.6856891, "lon": 8.5611483}, {"type": "node", "id": 1922704417, "lat": 54.6858017, "lon": 8.5612549}, {"type": "node", "id": 1922704672, "lat": 54.6856831, "lon": 8.5613546}, {"type": "way", "id": 181930911, "nodes": [1922704336, 1922704313, 1922704417, 1922704404, 1922704377, 1922704672, 1922704336], "tags": {"addr:city": "Wyk auf F\u00f6hr", "addr:country": "DE", "addr:housenumber": "3b", "addr:postcode": "25938", "addr:street": "Halligweg", "building": "house"}}]}