{"version": 0.6, "generator": "Overpass API 0.7.62.1 084b4234", "osm3s": {"timestamp_osm_base": "2024-06-07T14:03:51Z", "copyright": "The data included in this document is from www.openstreetmap.org. The data is made available under ODbL."}, "elements": [{"type": "node", "id": 1925405859, "lat": 54.6884503, "lon": 8.5693037}, {"type": "node", "id": 1925405862, "lat": 54.6883648, "lon": 8.5692308}, {"type": "node", "id": 1925405881, "lat": 54.6883751, "lon": 8.5690264}, {"type": "node", "id": 1925405901, "lat": 54.6884992, "lon": 8.5691322}, {"type": "node", "id": 1925405917, "lat": 54.6883263, "lon": 8.5691979}, {"type": "node", "id": 1925405933, "lat": 54.6883913, "lon": 8.5694978}, {"type": "node", "id": 5688860413, "lat": 54.6883058, "lon": 8.5694275}, {"type": "way", "id": 182195784, "nodes": [1925405859, 1925405901, 1925405881, 1925405917, 1925405862, 1925405859], "tags": {"addr:city": "Wyk auf F\u00f6hr", "addr:country": "DE", "addr:housenumber": "7", "addr:postcode": "25938", "addr:street": "S\u00fcderstra\u00dfe", "building": "house", "building:levels": "2", "roof:levels": "2"}}, {"type": "way", "id": 182195807, "nodes": [5688860413, 1925405933, 1925405859, 1925405862, 5688860413], "tags": {"addr:city": "Wyk auf F\u00f6hr", "addr:country": "DE", "addr:housenumber": "3", "addr:postcode": "25938", "addr:street": "S\u00fcderstra\u00dfe", "building": "house", "building:levels": "1", "roof:levels": "1"}}]}