{"version": 0.6, "generator": "Overpass API 0.7.62.1 084b4234", "osm3s": {"timestamp_osm_base": "2024-06-07T14:06:56Z", "copyright": "The data included in this document is from www.openstreetmap.org. The data is made available under ODbL."}, "elements": [{"type": "node", "id": 2926936042, "lat": 54.8702173, "lon": 8.885922}, {"type": "node", "id": 2926936046, "lat": 54.8702432, "lon": 8.8860866}, {"type": "node", "id": 2926936050, "lat": 54.870269, "lon": 8.8862511}, {"type": "node", "id": 2926936051, "lat": 54.8702942, "lon": 8.8858856}, {"type": "node", "id": 2926936056, "lat": 54.87032, "lon": 8.8860502}, {"type": "node", "id": 2926936060, "lat": 54.8703458, "lon": 8.8862147}, {"type": "way", "id": 289139645, "nodes": [2926936050, 2926936046, 2926936056, 2926936060, 2926936050], "tags": {"addr:city": "S\u00fcderl\u00fcgum", "addr:country": "DE", "addr:housenumber": "100", "addr:postcode": "25923", "addr:street": "Bahnhofstra\u00dfe", "building": "yes"}}, {"type": "way", "id": 289139646, "nodes": [2926936046, 2926936042, 2926936051, 2926936056, 2926936046], "tags": {"addr:city": "S\u00fcderl\u00fcgum", "addr:country": "DE", "addr:housenumber": "102", "addr:postcode": "25923", "addr:street": "Bahnhofstra\u00dfe", "building": "yes"}}]}