{"version": 0.6, "generator": "Overpass API 0.7.62.1 084b4234", "osm3s": {"timestamp_osm_base": "2024-06-07T14:14:03Z", "copyright": "The data included in this document is from www.openstreetmap.org. The data is made available under ODbL."}, "elements": [{"type": "node", "id": 8383726637, "lat": 54.7558185, "lon": 8.7799518}, {"type": "node", "id": 8383726638, "lat": 54.7558402, "lon": 8.7799482}, {"type": "node", "id": 8383726639, "lat": 54.7557296, "lon": 8.7798547}, {"type": "node", "id": 8383726640, "lat": 54.7557205, "lon": 8.7796865}, {"type": "node", "id": 8383726641, "lat": 54.7556431, "lon": 8.7798688}, {"type": "node", "id": 8383726642, "lat": 54.7556533, "lon": 8.780056}, {"type": "node", "id": 8383726643, "lat": 54.7558227, "lon": 8.7800283}, {"type": "node", "id": 8383726644, "lat": 54.7558251, "lon": 8.7796694}, {"type": "node", "id": 8383726645, "lat": 54.7554261, "lon": 8.7794754}, {"type": "node", "id": 8383726646, "lat": 54.7554339, "lon": 8.7797597}, {"type": "node", "id": 8383726647, "lat": 54.7555542, "lon": 8.7797499}, {"type": "node", "id": 8383726648, "lat": 54.7555465, "lon": 8.7794656}, {"type": "node", "id": 8383726649, "lat": 54.7550119, "lon": 8.7793742}, {"type": "node", "id": 8383726650, "lat": 54.755015, "lon": 8.7795298}, {"type": "node", "id": 8383726651, "lat": 54.7551022, "lon": 8.7795246}, {"type": "node", "id": 8383726652, "lat": 54.7550991, "lon": 8.779369}, {"type": "way", "id": 902640051, "nodes": [8383726644, 8383726638, 8383726637, 8383726643, 8383726642, 8383726641, 8383726639, 8383726640, 8383726644], "tags": {"addr:city": "Galmsb\u00fcll", "addr:country": "DE", "addr:housenumber": "7", "addr:postcode": "25899", "addr:street": "Norderster Weg", "addr:suburb": "Kleiseerkoog", "building": "yes", "name": "Hof Hilligenbohl", "tourism": "apartment", "website": "https://www.hilligenbohl.de/"}}, {"type": "way", "id": 902640052, "nodes": [8383726648, 8383726647, 8383726646, 8383726645, 8383726648], "tags": {"building": "yes"}}, {"type": "way", "id": 902640053, "nodes": [8383726652, 8383726651, 8383726650, 8383726649, 8383726652], "tags": {"building": "yes"}}]}