{"version": 0.6, "generator": "Overpass API 0.7.62.1 084b4234", "osm3s": {"timestamp_osm_base": "2024-06-07T14:06:56Z", "copyright": "The data included in this document is from www.openstreetmap.org. The data is made available under ODbL."}, "elements": [{"type": "node", "id": 6629033397, "lat": 54.8387657, "lon": 8.8758729}, {"type": "node", "id": 6629033398, "lat": 54.8388353, "lon": 8.8758796}, {"type": "node", "id": 6629033399, "lat": 54.8388399, "lon": 8.8757366}, {"type": "node", "id": 6629033400, "lat": 54.8387703, "lon": 8.8757298}, {"type": "node", "id": 6629033409, "lat": 54.8386735, "lon": 8.8757204}, {"type": "node", "id": 6629033410, "lat": 54.8387729, "lon": 8.8756487}, {"type": "node", "id": 6629033411, "lat": 54.8386761, "lon": 8.8756393}, {"type": "way", "id": 705515391, "nodes": [6629033397, 6629033398, 6629033399, 6629033400, 6629033397], "tags": {"addr:city": "Braderup", "addr:country": "DE", "addr:housenumber": "57", "addr:postcode": "25923", "addr:street": "Norderstra\u00dfe", "building": "house"}}, {"type": "way", "id": 705515394, "nodes": [6629033409, 6629033400, 6629033410, 6629033411, 6629033409], "tags": {"building": "garage"}}]}