{"version": 0.6, "generator": "Overpass API 0.7.62.1 084b4234", "osm3s": {"timestamp_osm_base": "2024-06-07T14:19:11Z", "copyright": "The data included in this document is from www.openstreetmap.org. The data is made available under ODbL."}, "elements": [{"type": "node", "id": 1837942713, "lat": 54.75868, "lon": 8.9919201}, {"type": "node", "id": 1837942716, "lat": 54.7587581, "lon": 8.9917674}, {"type": "node", "id": 1837942718, "lat": 54.758828, "lon": 8.9921475}, {"type": "node", "id": 1837942721, "lat": 54.7589061, "lon": 8.9919948}, {"type": "node", "id": 1837942723, "lat": 54.7589125, "lon": 8.9923061}, {"type": "node", "id": 1837942725, "lat": 54.7589889, "lon": 8.9921791}, {"type": "node", "id": 1837942727, "lat": 54.7590225, "lon": 8.9925048}, {"type": "node", "id": 1837942729, "lat": 54.7590989, "lon": 8.9923778}, {"type": "way", "id": 172965354, "nodes": [1837942729, 1837942727, 1837942723, 1837942725, 1837942729], "tags": {"building": "yes"}}, {"type": "way", "id": 172965355, "nodes": [1837942721, 1837942718, 1837942713, 1837942716, 1837942721], "tags": {"addr:city": "Leck", "addr:housenumber": "1", "addr:postcode": "25917", "addr:street": "Karlsmark", "building": "yes", "camp_site": "reception", "contact:email": "camping-leck@versanet.de", "contact:fax": "+49 4662 775891", "contact:phone": "+49 4662 1850", "website": "https://camping-leck.de/"}}]}