{"version": 0.6, "generator": "Overpass API 0.7.62.1 084b4234", "osm3s": {"timestamp_osm_base": "2024-06-07T14:05:55Z", "copyright": "The data included in this document is from www.openstreetmap.org. The data is made available under ODbL."}, "elements": [{"type": "node", "id": 3617485359, "lat": 54.7920189, "lon": 8.8279463}, {"type": "node", "id": 3617485364, "lat": 54.7920977, "lon": 8.8276887}, {"type": "node", "id": 3617485366, "lat": 54.792103, "lon": 8.8280237}, {"type": "node", "id": 3617485370, "lat": 54.7921371, "lon": 8.8277249}, {"type": "node", "id": 3617485373, "lat": 54.7921562, "lon": 8.8276625}, {"type": "node", "id": 3617485375, "lat": 54.792162, "lon": 8.827831}, {"type": "node", "id": 3617485378, "lat": 54.7921947, "lon": 8.8278612}, {"type": "node", "id": 3617485382, "lat": 54.7922337, "lon": 8.8277339}, {"type": "way", "id": 356294192, "nodes": [3617485382, 3617485373, 3617485370, 3617485364, 3617485359, 3617485366, 3617485375, 3617485378, 3617485382], "tags": {"addr:city": "Nieb\u00fcll", "addr:country": "DE", "addr:housenumber": "27", "addr:postcode": "25899", "addr:street": "Gotteskoogstra\u00dfe", "building": "residential"}}]}